{"meta":{"name":"openaq-api","license":"CC BY 4.0","website":"https://docs.openaq.org/","page":1,"limit":100,"found":1405},"results":[{"location":" 淮河道","city":"天津市","country":"CN","distance":10547818.178373117,"measurements":[{"parameter":"pm25","value":5,"lastUpdated":"2019-01-25T04:00:00.000Z","unit":"µg/m³","sourceName":"ChinaAQIData","averagingPeriod":{"value":1,"unit":"hours"}}],"coordinates":{"latitude":39.2133,"longitude":117.1837}},{"location":"1号","city":"平度市","country":"CN","distance":10595289.413267197,"measurements":[{"parameter":"pm25","value":9,"lastUpdated":"2019-01-25T04:00:00.000Z","unit":"µg/m³","sourceName":"ChinaAQIData","averagingPeriod":{"value":1,"unit":"hours"}}],"coordinates":{"latitude":36.792,"longitude":119.952}},{"location":"22中南校区","city":"石家庄市","country":"CN","distance":10792854.722090852,"measurements":[{"parameter":"pm25","value":39,"lastUpdated":"2019-01-25T04:00:00.000Z","unit":"µg/m³","sourceName":"ChinaAQIData","averagingPeriod":{"value":1,"unit":"hours"}}],"coordinates":{"latitude":38.037777,"longitude":114.54806}},{"location":"2号","city":"平度市","country":"CN","distance":10593290.637761975,"measurements":[{"parameter":"pm25","value":9,"lastUpdated":"2019-01-25T04:00:00.000Z","unit":"µg/m³","sourceName":"ChinaAQIData","averagingPeriod":{"value":1,"unit":"hours"}}],"coordinates":{"latitude":36.799,"longitude":119.976}},{"location":"2号子站","city":"胶南市","country":"CN","distance":10666758.666761829,"measurements":[{"parameter":"pm25","value":26,"lastUpdated":"2019-01-25T04:00:00.000Z","unit":"µg/m³","sourceName":"ChinaAQIData","averagingPeriod":{"value":1,"unit":"hours"}}],"coordinates":{"latitude":35.872,"longitude":120.039}},{"location":"Anqing An Qing Da Xue","city":"Anqing","country":"CN","distance":11294665.606078336,"measurements":[{"parameter":"pm25","value":75,"lastUpdated":"2018-10-13T21:00:00.000Z","unit":"µg/m³","sourceName":"Anqing","averagingPeriod":{"value":1,"unit":"hours"}}],"coordinates":{"latitude":30.6145,"longitude":116.9894}},{"location":"Anqing Huan Ke Yuan","city":"Anqing","country":"CN","distance":11299479.699490372,"measurements":[{"parameter":"pm25","value":65,"lastUpdated":"2018-10-13T21:00:00.000Z","unit":"µg/m³","sourceName":"Anqing","averagingPeriod":{"value":1,"unit":"hours"}}],"coordinates":{"latitude":30.5103,"longitude":117.0549}},{"location":"Anqing Lian Fu Hua Yuan","city":"Anqing","country":"CN","distance":11296588.43318282,"measurements":[{"parameter":"pm25","value":6,"lastUpdated":"2018-08-16T04:00:00.000Z","unit":"µg/m³","sourceName":"Anqing","averagingPeriod":{"value":1,"unit":"hours"}}],"coordinates":{"latitude":30.5489,"longitude":117.0486}},{"location":"Anqing Ma Shan Bin Guan","city":"Anqing","country":"CN","distance":11300684.53780295,"measurements":[{"parameter":"pm25","value":81,"lastUpdated":"2018-10-13T21:00:00.000Z","unit":"µg/m³","sourceName":"Anqing","averagingPeriod":{"value":1,"unit":"hours"}}],"coordinates":{"latitude":30.511972,"longitude":117.03311}},{"location":"Anqing Shi Ren Da","city":"Anqing","country":"CN","measurements":[{"parameter":"pm25","value":56,"lastUpdated":"2018-10-13T21:00:00.000Z","unit":"µg/m³","sourceName":"Anqing","averagingPeriod":{"value":1,"unit":"hours"}}]},{"location":"Beijing US Embassy","city":"Beijing","country":"CN","distance":10522975.77387937,"measurements":[{"parameter":"pm25","value":11,"lastUpdated":"2019-01-25T08:00:00.000Z","unit":"µg/m³","sourceName":"Beijing US Embassy","averagingPeriod":{"value":1,"unit":"hours"}}],"coordinates":{"latitude":39.95,"longitude":116.47}},{"location":"Bengbu Bai Huo Da Lou","city":"Bengbu","country":"CN","distance":11074006.26394672,"measurements":[{"parameter":"pm25","value":34,"lastUpdated":"2018-10-13T21:00:00.000Z","unit":"µg/m³","sourceName":"Bengbu","averagingPeriod":{"value":1,"unit":"hours"}}],"coordinates":{"latitude":32.9444,"longitude":117.3575}},{"location":"Bengbu Bang Bu Xue Yuan","city":"Bengbu","country":"CN","distance":11074848.910799276,"measurements":[{"parameter":"pm25","value":27,"lastUpdated":"2018-10-13T21:00:00.000Z","unit":"µg/m³","sourceName":"Bengbu","averagingPeriod":{"value":1,"unit":"hours"}}],"coordinates":{"latitude":32.8913,"longitude":117.4186}},{"location":"Bengbu Er Shui Han","city":"Bengbu","country":"CN","distance":11077744.586864298,"measurements":[{"parameter":"pm25","value":47,"lastUpdated":"2018-10-13T21:00:00.000Z","unit":"µg/m³","sourceName":"Bengbu","averagingPeriod":{"value":1,"unit":"hours"}}],"coordinates":{"latitude":32.935,"longitude":117.3086}},{"location":"Bengbu Gao Xin Qu","city":"Bengbu","country":"CN","distance":11080978.494575473,"measurements":[{"parameter":"pm25","value":35,"lastUpdated":"2018-10-13T21:00:00.000Z","unit":"µg/m³","sourceName":"Bengbu","averagingPeriod":{"value":1,"unit":"hours"}}],"coordinates":{"latitude":32.8985,"longitude":117.3065}},{"location":"Bengbu Gong Ren Liao Yang Yuan","city":"Bengbu","country":"CN","distance":11072145.173553938,"measurements":[{"parameter":"pm25","value":27,"lastUpdated":"2018-10-13T21:00:00.000Z","unit":"µg/m³","sourceName":"Bengbu","averagingPeriod":{"value":1,"unit":"hours"}}],"coordinates":{"latitude":32.939,"longitude":117.3961}},{"location":"Bengbu Huai Shang Qu Zheng Fu","city":"Bengbu","country":"CN","distance":11072291.604436774,"measurements":[{"parameter":"pm25","value":27,"lastUpdated":"2018-10-13T21:00:00.000Z","unit":"µg/m³","sourceName":"Bengbu","averagingPeriod":{"value":1,"unit":"hours"}}],"coordinates":{"latitude":32.9673,"longitude":117.3536}},{"location":"Bozhou San Guo Lan Sheng Gong","city":"Bozhou","country":"CN","distance":11088794.457055105,"measurements":[{"parameter":"pm25","value":28,"lastUpdated":"2018-10-13T21:00:00.000Z","unit":"µg/m³","sourceName":"Bozhou","averagingPeriod":{"value":1,"unit":"hours"}}],"coordinates":{"latitude":33.8561,"longitude":115.7831}},{"location":"Bozhou Wu Shui Chu Li Han","city":"Bozhou","country":"CN","distance":11088825.177734453,"measurements":[{"parameter":"pm25","value":30,"lastUpdated":"2018-10-13T21:00:00.000Z","unit":"µg/m³","sourceName":"Bozhou","averagingPeriod":{"value":1,"unit":"hours"}}],"coordinates":{"latitude":33.8399,"longitude":115.8067}},{"location":"Chengdu","city":"Chengdu","country":"CN","distance":12014815.042140052,"measurements":[{"parameter":"pm25","value":97,"lastUpdated":"2019-01-25T08:00:00.000Z","unit":"µg/m³","sourceName":"Chengdu","averagingPeriod":{"value":1,"unit":"hours"}}],"coordinates":{"latitude":30.63,"longitude":104.07}},{"location":"Chizhou Chi Zhou Xue Yuan","city":"Chizhou","country":"CN","distance":11260946.353408663,"measurements":[{"parameter":"pm25","value":49,"lastUpdated":"2018-10-13T21:00:00.000Z","unit":"µg/m³","sourceName":"Chizhou","averagingPeriod":{"value":1,"unit":"hours"}}],"coordinates":{"latitude":30.6617,"longitude":117.4697}},{"location":"Chizhou Lao Gan Bu Ju","city":"Chizhou","country":"CN","distance":11259830.658953708,"measurements":[{"parameter":"pm25","value":33,"lastUpdated":"2018-08-24T06:00:00.000Z","unit":"µg/m³","sourceName":"Chizhou","averagingPeriod":{"value":1,"unit":"hours"}}],"coordinates":{"latitude":30.66,"longitude":117.49}},{"location":"Chizhou Ping Tian Hu","city":"Chizhou","country":"CN","distance":11259887.777386991,"measurements":[{"parameter":"pm25","value":44,"lastUpdated":"2018-10-13T21:00:00.000Z","unit":"µg/m³","sourceName":"Chizhou","averagingPeriod":{"value":1,"unit":"hours"}}],"coordinates":{"latitude":30.6539,"longitude":117.4974}},{"location":"Chizhou Zhan Lan Guan","city":"Chizhou","country":"CN","measurements":[{"parameter":"pm25","value":39,"lastUpdated":"2018-10-13T21:00:00.000Z","unit":"µg/m³","sourceName":"Chizhou","averagingPeriod":{"value":1,"unit":"hours"}}]},{"location":"Chuzhou Jian Ce Zhan","city":"Chuzhou","country":"CN","distance":11069838.214146487,"measurements":[{"parameter":"pm25","value":34,"lastUpdated":"2018-10-13T21:00:00.000Z","unit":"µg/m³","sourceName":"Chuzhou","averagingPeriod":{"value":1,"unit":"hours"}}],"coordinates":{"latitude":32.3061,"longitude":118.3158}},{"location":"Chuzhou Lao Nian Da Xue","city":"Chuzhou","country":"CN","distance":11069456.0598593,"measurements":[{"parameter":"pm25","value":38,"lastUpdated":"2018-10-13T21:00:00.000Z","unit":"µg/m³","sourceName":"Chuzhou","averagingPeriod":{"value":1,"unit":"hours"}}],"coordinates":{"latitude":32.3153,"longitude":118.3094}},{"location":"Chuzhou Ren Da Bin Guan","city":"Chuzhou","country":"CN","distance":11071626.52492761,"measurements":[{"parameter":"pm25","value":46,"lastUpdated":"2018-10-13T21:00:00.000Z","unit":"µg/m³","sourceName":"Chuzhou","averagingPeriod":{"value":1,"unit":"hours"}}],"coordinates":{"latitude":32.2786,"longitude":118.3244}},{"location":"Fuyang Fu Yang Zhi Ye Ji Zhu Xue Yuan","city":"Fuyang","country":"CN","distance":11172330.736285822,"measurements":[{"parameter":"pm25","value":39,"lastUpdated":"2018-10-13T21:00:00.000Z","unit":"µg/m³","sourceName":"Fuyang","averagingPeriod":{"value":1,"unit":"hours"}}],"coordinates":{"latitude":32.88922,"longitude":115.78389}},{"location":"Fuyang Kai Fa Qu","city":"Fuyang","country":"CN","distance":11170605.077197723,"measurements":[{"parameter":"pm25","value":44,"lastUpdated":"2018-10-13T21:00:00.000Z","unit":"µg/m³","sourceName":"Fuyang","averagingPeriod":{"value":1,"unit":"hours"}}],"coordinates":{"latitude":32.8603,"longitude":115.8556}},{"location":"Fuyang Shi Jian Ce Zhan","city":"Fuyang","country":"CN","distance":11169454.57098682,"measurements":[{"parameter":"pm25","value":42,"lastUpdated":"2018-10-13T21:00:00.000Z","unit":"µg/m³","sourceName":"Fuyang","averagingPeriod":{"value":1,"unit":"hours"}}],"coordinates":{"latitude":32.8928,"longitude":115.8275}},{"location":"Guangzhou","city":"Guangzhou","country":"CN","distance":12169083.072025757,"measurements":[{"parameter":"pm25","value":117,"lastUpdated":"2019-01-25T08:00:00.000Z","unit":"µg/m³","sourceName":"Guangzhou","averagingPeriod":{"value":1,"unit":"hours"}}],"coordinates":{"latitude":23.12,"longitude":113.32}},{"location":"Hefei Bao He Qu","city":"Hefei","country":"CN","distance":11175070.307051135,"measurements":[{"parameter":"pm25","value":61,"lastUpdated":"2018-10-13T21:00:00.000Z","unit":"µg/m³","sourceName":"Hefei","averagingPeriod":{"value":1,"unit":"hours"}}],"coordinates":{"latitude":31.7956,"longitude":117.302}},{"location":"Hefei Bin Hu Xin Qu","city":"Hefei","country":"CN","distance":11181378.98709442,"measurements":[{"parameter":"pm25","value":46,"lastUpdated":"2018-10-13T21:00:00.000Z","unit":"µg/m³","sourceName":"Hefei","averagingPeriod":{"value":1,"unit":"hours"}}],"coordinates":{"latitude":31.7386,"longitude":117.278}},{"location":"Hefei Chang Jiang Zhong Lu","city":"Hefei","country":"CN","distance":11173002.493086036,"measurements":[{"parameter":"pm25","value":46,"lastUpdated":"2018-10-13T21:00:00.000Z","unit":"µg/m³","sourceName":"Hefei","averagingPeriod":{"value":1,"unit":"hours"}}],"coordinates":{"latitude":31.8572,"longitude":117.25}},{"location":"Hefei Dong Pu Shui Ku","city":"Hefei","country":"CN","distance":11174402.835604899,"measurements":[{"parameter":"pm25","value":53,"lastUpdated":"2018-10-13T21:00:00.000Z","unit":"µg/m³","sourceName":"Hefei","averagingPeriod":{"value":1,"unit":"hours"}}],"coordinates":{"latitude":31.9051,"longitude":117.16}},{"location":"Hefei Gao Xin Qu","city":"Hefei","country":"CN","distance":11181145.77162735,"measurements":[{"parameter":"pm25","value":38,"lastUpdated":"2018-10-13T21:00:00.000Z","unit":"µg/m³","sourceName":"Hefei","averagingPeriod":{"value":1,"unit":"hours"}}],"coordinates":{"latitude":31.8516,"longitude":117.124}},{"location":"Hefei Hu Po Shan Zhuang","city":"Hefei","country":"CN","distance":11171314.948321719,"measurements":[{"parameter":"pm25","value":53,"lastUpdated":"2018-10-13T21:00:00.000Z","unit":"µg/m³","sourceName":"Hefei","averagingPeriod":{"value":1,"unit":"hours"}}],"coordinates":{"latitude":31.8706,"longitude":117.259}},{"location":"Hefei Lu Yang Qu","city":"Hefei","country":"CN","distance":11164664.206919102,"measurements":[{"parameter":"pm25","value":53,"lastUpdated":"2018-10-13T21:00:00.000Z","unit":"µg/m³","sourceName":"Hefei","averagingPeriod":{"value":1,"unit":"hours"}}],"coordinates":{"latitude":31.9438,"longitude":117.266}},{"location":"Hefei Ming Zhu Guang Chang","city":"Hefei","country":"CN","distance":11182449.341319239,"measurements":[{"parameter":"pm25","value":41,"lastUpdated":"2018-10-13T21:00:00.000Z","unit":"µg/m³","sourceName":"Hefei","averagingPeriod":{"value":1,"unit":"hours"}}],"coordinates":{"latitude":31.7848,"longitude":117.196}},{"location":"Hefei San Li Jie","city":"Hefei","country":"CN","distance":11167881.16567472,"measurements":[{"parameter":"pm25","value":47,"lastUpdated":"2018-10-13T21:00:00.000Z","unit":"µg/m³","sourceName":"Hefei","averagingPeriod":{"value":1,"unit":"hours"}}],"coordinates":{"latitude":31.8766,"longitude":117.307}},{"location":"Hefei Yao Hai Qu","city":"Hefei","country":"CN","distance":11167651.905430308,"measurements":[{"parameter":"pm25","value":56,"lastUpdated":"2018-10-13T21:00:00.000Z","unit":"µg/m³","sourceName":"Hefei","averagingPeriod":{"value":1,"unit":"hours"}}],"coordinates":{"latitude":31.8585,"longitude":117.336}},{"location":"Huaibei Jian Ce Zhan","city":"Huaibei","country":"CN","distance":11019088.927748604,"measurements":[{"parameter":"pm25","value":43,"lastUpdated":"2018-10-13T21:00:00.000Z","unit":"µg/m³","sourceName":"Huaibei","averagingPeriod":{"value":1,"unit":"hours"}}],"coordinates":{"latitude":33.975,"longitude":116.8008}},{"location":"Huaibei Lie Shan Qu Zheng Fu","city":"Huaibei","country":"CN","distance":11025194.126372078,"measurements":[{"parameter":"pm25","value":40,"lastUpdated":"2018-10-13T21:00:00.000Z","unit":"µg/m³","sourceName":"Huaibei","averagingPeriod":{"value":1,"unit":"hours"}}],"coordinates":{"latitude":33.8997,"longitude":116.8067}},{"location":"Huaibei Zhi Ye Ji Zhu Xue Yuan","city":"Huaibei","country":"CN","distance":11022530.158098297,"measurements":[{"parameter":"pm25","value":38,"lastUpdated":"2018-10-13T21:00:00.000Z","unit":"µg/m³","sourceName":"Huaibei","averagingPeriod":{"value":1,"unit":"hours"}}],"coordinates":{"latitude":33.9461,"longitude":116.7844}},{"location":"Huainan Ba Gong Shan Qu Zheng Fu","city":"Huainan","country":"CN","distance":11132283.197422056,"measurements":[{"parameter":"pm25","value":60,"lastUpdated":"2018-10-13T21:00:00.000Z","unit":"µg/m³","sourceName":"Huainan","averagingPeriod":{"value":1,"unit":"hours"}}],"coordinates":{"latitude":32.6319,"longitude":116.8306}},{"location":"Huainan Jiao Gang Hu Feng Jing Qu Guan Li Chu","city":"Huainan","country":"CN","distance":11140459.60415551,"measurements":[{"parameter":"pm25","value":31,"lastUpdated":"2018-10-13T21:00:00.000Z","unit":"µg/m³","sourceName":"Huainan","averagingPeriod":{"value":1,"unit":"hours"}}],"coordinates":{"latitude":32.625,"longitude":116.7039}},{"location":"Huainan Pan Ji Qu Zheng Fu","city":"Huainan","country":"CN","distance":11122659.625217343,"measurements":[{"parameter":"pm25","value":35,"lastUpdated":"2018-10-13T21:00:00.000Z","unit":"µg/m³","sourceName":"Huainan","averagingPeriod":{"value":1,"unit":"hours"}}],"coordinates":{"latitude":32.7639,"longitude":116.8028}},{"location":"Huainan Shi Fan Xue Yuan","city":"Huainan","country":"CN","distance":11120503.61571101,"measurements":[{"parameter":"pm25","value":37,"lastUpdated":"2018-10-13T21:00:00.000Z","unit":"µg/m³","sourceName":"Huainan","averagingPeriod":{"value":1,"unit":"hours"}}],"coordinates":{"latitude":32.645,"longitude":117.0083}},{"location":"Huainan Xie Jia Ji Qu Zheng Fu","city":"Huainan","country":"CN","distance":11133271.998166664,"measurements":[{"parameter":"pm25","value":49,"lastUpdated":"2018-10-13T21:00:00.000Z","unit":"µg/m³","sourceName":"Huainan","averagingPeriod":{"value":1,"unit":"hours"}}],"coordinates":{"latitude":32.6028,"longitude":116.8556}},{"location":"Huainan Yi Yi Ru Ye Gong Ye Yuan","city":"Huainan","country":"CN","distance":11118443.353236767,"measurements":[{"parameter":"pm25","value":47,"lastUpdated":"2018-10-13T21:00:00.000Z","unit":"µg/m³","sourceName":"Huainan","averagingPeriod":{"value":1,"unit":"hours"}}],"coordinates":{"latitude":32.646004,"longitude":117.04117}},{"location":"Huangshan Huang Shan Dong Lu 89 Hao","city":"Huangshan","country":"CN","distance":11286634.501219988,"measurements":[{"parameter":"pm25","value":21,"lastUpdated":"2018-10-13T21:00:00.000Z","unit":"µg/m³","sourceName":"Huangshan","averagingPeriod":{"value":1,"unit":"hours"}}],"coordinates":{"latitude":29.7207,"longitude":118.3236}},{"location":"Huangshan Huang Shan Qu Zheng Fu 5 Hao Lou","city":"Huangshan","country":"CN","distance":11251833.003356049,"measurements":[{"parameter":"pm25","value":25,"lastUpdated":"2018-10-13T21:00:00.000Z","unit":"µg/m³","sourceName":"Huangshan","averagingPeriod":{"value":1,"unit":"hours"}}],"coordinates":{"latitude":30.2756,"longitude":118.1371}},{"location":"Huangshan Yan An Lu 89 Hao","city":"Huangshan","country":"CN","distance":11288433.17630401,"measurements":[{"parameter":"pm25","value":17,"lastUpdated":"2018-10-13T21:00:00.000Z","unit":"µg/m³","sourceName":"Huangshan","averagingPeriod":{"value":1,"unit":"hours"}}],"coordinates":{"latitude":29.7128,"longitude":118.3057}},{"location":"JN子站","city":"胶南市","country":"CN","distance":10668291.878637515,"measurements":[{"parameter":"pm25","value":89,"lastUpdated":"2019-01-24T21:00:00.000Z","unit":"µg/m³","sourceName":"ChinaAQIData","averagingPeriod":{"value":1,"unit":"hours"}}],"coordinates":{"latitude":35.878,"longitude":120.005}},{"location":"Lu'an Jian Ce Da Lou","city":"Lu'an","country":"CN","measurements":[{"parameter":"pm25","value":41,"lastUpdated":"2018-10-13T21:00:00.000Z","unit":"µg/m³","sourceName":"Lu'an","averagingPeriod":{"value":1,"unit":"hours"}}]},{"location":"Lu'an Kai Fa Qu","city":"Lu'an","country":"CN","measurements":[{"parameter":"pm25","value":39,"lastUpdated":"2018-10-13T21:00:00.000Z","unit":"µg/m³","sourceName":"Lu'an","averagingPeriod":{"value":1,"unit":"hours"}}]},{"location":"Lu'an Wan Xi Xue Yuan","city":"Lu'an","country":"CN","measurements":[{"parameter":"pm25","value":28,"lastUpdated":"2018-10-13T21:00:00.000Z","unit":"µg/m³","sourceName":"Lu'an","averagingPeriod":{"value":1,"unit":"hours"}}]},{"location":"Lu'an Zhao Yang Han","city":"Lu'an","country":"CN","measurements":[{"parameter":"pm25","value":43,"lastUpdated":"2018-10-13T21:00:00.000Z","unit":"µg/m³","sourceName":"Lu'an","averagingPeriod":{"value":1,"unit":"hours"}}]},{"location":"Ma'anshan Ci Hu","city":"Ma'anshan","country":"CN","measurements":[{"parameter":"pm25","value":41,"lastUpdated":"2018-10-13T21:00:00.000Z","unit":"µg/m³","sourceName":"Ma'anshan","averagingPeriod":{"value":1,"unit":"hours"}}]},{"location":"Ma'anshan Ci Hu Er Xiao","city":"Ma'anshan","country":"CN","distance":11104548.693175605,"measurements":[{"parameter":"pm25","value":27,"lastUpdated":"2018-08-24T06:00:00.000Z","unit":"µg/m³","sourceName":"Ma'anshan","averagingPeriod":{"value":1,"unit":"hours"}}],"coordinates":{"latitude":31.7506,"longitude":118.5106}},{"location":"Ma'anshan Hu Dong Lu Si Xiao","city":"Ma'anshan","country":"CN","distance":11110264.321016593,"measurements":[{"parameter":"pm25","value":38,"lastUpdated":"2018-10-13T21:00:00.000Z","unit":"µg/m³","sourceName":"Ma'anshan","averagingPeriod":{"value":1,"unit":"hours"}}],"coordinates":{"latitude":31.6861,"longitude":118.5058}},{"location":"Ma'anshan Kai Fa Qu","city":"Ma'anshan","country":"CN","measurements":[{"parameter":"pm25","value":41,"lastUpdated":"2018-10-13T21:00:00.000Z","unit":"µg/m³","sourceName":"Ma'anshan","averagingPeriod":{"value":1,"unit":"hours"}}]},{"location":"Ma'anshan Ma Gang","city":"Ma'anshan","country":"CN","measurements":[{"parameter":"pm25","value":37,"lastUpdated":"2018-10-13T21:00:00.000Z","unit":"µg/m³","sourceName":"Ma'anshan","averagingPeriod":{"value":1,"unit":"hours"}}]},{"location":"Ma'anshan Ma Gang Dong Li Han","city":"Ma'anshan","country":"CN","distance":11111301.953981154,"measurements":[{"parameter":"pm25","value":28,"lastUpdated":"2018-08-24T06:00:00.000Z","unit":"µg/m³","sourceName":"Ma'anshan","averagingPeriod":{"value":1,"unit":"hours"}}],"coordinates":{"latitude":31.6928,"longitude":118.48}},{"location":"Ma'anshan Pu Tang","city":"Ma'anshan","country":"CN","measurements":[{"parameter":"pm25","value":44,"lastUpdated":"2018-10-13T21:00:00.000Z","unit":"µg/m³","sourceName":"Ma'anshan","averagingPeriod":{"value":1,"unit":"hours"}}]},{"location":"Ma'anshan Shi Jiao Yu Ji Di","city":"Ma'anshan","country":"CN","distance":11099406.350249743,"measurements":[{"parameter":"pm25","value":40,"lastUpdated":"2018-08-24T06:00:00.000Z","unit":"µg/m³","sourceName":"Ma'anshan","averagingPeriod":{"value":1,"unit":"hours"}}],"coordinates":{"latitude":31.7133,"longitude":118.6439}},{"location":"Ma'anshan Tian Ping Fu Zhuang","city":"Ma'anshan","country":"CN","distance":11115471.705052922,"measurements":[{"parameter":"pm25","value":14,"lastUpdated":"2018-08-24T06:00:00.000Z","unit":"µg/m³","sourceName":"Ma'anshan","averagingPeriod":{"value":1,"unit":"hours"}}],"coordinates":{"latitude":31.6411,"longitude":118.4828}},{"location":"SPARTAN - Tsinghua University","city":"Beijing","country":"CN","distance":10525109.998070503,"measurements":[{"parameter":"pm25","value":173,"lastUpdated":"2015-10-15T16:00:00.000Z","unit":"µg/m³","sourceName":"Spartan","averagingPeriod":{"value":1,"unit":"hours"}}],"coordinates":{"latitude":40.01,"longitude":116.333}},{"location":"Shanghai","city":"Shanghai","country":"CN","distance":10963696.565746246,"measurements":[{"parameter":"pm25","value":31,"lastUpdated":"2019-01-25T08:00:00.000Z","unit":"µg/m³","sourceName":"Shanghai","averagingPeriod":{"value":1,"unit":"hours"}}],"coordinates":{"latitude":31.21,"longitude":121.44}},{"location":"Shenyang","city":"Shenyang","country":"CN","distance":9984642.967368394,"measurements":[{"parameter":"pm25","value":9,"lastUpdated":"2019-01-25T08:00:00.000Z","unit":"µg/m³","sourceName":"Shenyang","averagingPeriod":{"value":1,"unit":"hours"}}],"coordinates":{"latitude":41.78,"longitude":123.42}},{"location":"Suzhou Huo Che Zhan","city":"Suzhou","country":"CN","distance":11037456.983080545,"measurements":[{"parameter":"pm25","value":39,"lastUpdated":"2018-10-13T21:00:00.000Z","unit":"µg/m³","sourceName":"Suzhou","averagingPeriod":{"value":1,"unit":"hours"}}],"coordinates":{"latitude":33.63064,"longitude":116.989}},{"location":"Suzhou Jian Ce Lou","city":"Suzhou","country":"CN","distance":11036704.43305938,"measurements":[{"parameter":"pm25","value":47,"lastUpdated":"2018-10-13T21:00:00.000Z","unit":"µg/m³","sourceName":"Suzhou","averagingPeriod":{"value":1,"unit":"hours"}}],"coordinates":{"latitude":33.6481,"longitude":116.9765}},{"location":"Suzhou Yi Zhong","city":"Suzhou","country":"CN","distance":11038910.173218891,"measurements":[{"parameter":"pm25","value":45,"lastUpdated":"2018-10-13T21:00:00.000Z","unit":"µg/m³","sourceName":"Suzhou","averagingPeriod":{"value":1,"unit":"hours"}}],"coordinates":{"latitude":33.6284,"longitude":116.9677}},{"location":"Tongling Che Zhan Xin Qu","city":"Tongling","country":"CN","distance":11214955.795525655,"measurements":[{"parameter":"pm25","value":31,"lastUpdated":"2018-10-13T21:00:00.000Z","unit":"µg/m³","sourceName":"Tongling","averagingPeriod":{"value":1,"unit":"hours"}}],"coordinates":{"latitude":30.9219,"longitude":117.8561}},{"location":"Tongling Shi Di Jiu Zhong Xue","city":"Tongling","country":"CN","distance":11225352.079376338,"measurements":[{"parameter":"pm25","value":50,"lastUpdated":"2018-10-13T21:00:00.000Z","unit":"µg/m³","sourceName":"Tongling","averagingPeriod":{"value":1,"unit":"hours"}}],"coordinates":{"latitude":30.8811,"longitude":117.7442}},{"location":"Tongling Shi Di Si Zhong Xue","city":"Tongling","country":"CN","distance":11215688.80992373,"measurements":[{"parameter":"pm25","value":38,"lastUpdated":"2018-10-13T21:00:00.000Z","unit":"µg/m³","sourceName":"Tongling","averagingPeriod":{"value":1,"unit":"hours"}}],"coordinates":{"latitude":30.9414,"longitude":117.8178}},{"location":"Tongling Shi Gong Lu Ju","city":"Tongling","country":"CN","distance":11217931.124377346,"measurements":[{"parameter":"pm25","value":40,"lastUpdated":"2018-10-13T21:00:00.000Z","unit":"µg/m³","sourceName":"Tongling","averagingPeriod":{"value":1,"unit":"hours"}}],"coordinates":{"latitude":30.9222,"longitude":117.8078}},{"location":"Tongling Shi Xin Min Wu Shui Han","city":"Tongling","country":"CN","distance":11217998.30984573,"measurements":[{"parameter":"pm25","value":28,"lastUpdated":"2018-10-13T21:00:00.000Z","unit":"µg/m³","sourceName":"Tongling","averagingPeriod":{"value":1,"unit":"hours"}}],"coordinates":{"latitude":30.9414,"longitude":117.7806}},{"location":"Tongling Zhi Jiao Ji Di","city":"Tongling","country":"CN","measurements":[{"parameter":"pm25","value":35,"lastUpdated":"2018-10-13T21:00:00.000Z","unit":"µg/m³","sourceName":"Tongling","averagingPeriod":{"value":1,"unit":"hours"}}]},{"location":"Wuhu Ji Min Yi Yuan","city":"Wuhu","country":"CN","measurements":[{"parameter":"pm25","value":32,"lastUpdated":"2018-10-13T21:00:00.000Z","unit":"µg/m³","sourceName":"Wuhu","averagingPeriod":{"value":1,"unit":"hours"}}]},{"location":"Wuhu Jian Ce Zhan","city":"Wuhu","country":"CN","distance":11147945.37900313,"measurements":[{"parameter":"pm25","value":35,"lastUpdated":"2018-10-13T21:00:00.000Z","unit":"µg/m³","sourceName":"Wuhu","averagingPeriod":{"value":1,"unit":"hours"}}],"coordinates":{"latitude":31.3508,"longitude":118.3528}},{"location":"Wuhu Ke Chuang Zhong Xin","city":"Wuhu","country":"CN","distance":11141150.880742822,"measurements":[{"parameter":"pm25","value":50,"lastUpdated":"2018-10-13T21:00:00.000Z","unit":"µg/m³","sourceName":"Wuhu","averagingPeriod":{"value":1,"unit":"hours"}}],"coordinates":{"latitude":31.4189,"longitude":118.37}},{"location":"Wuhu Si Shui Han","city":"Wuhu","country":"CN","distance":11149599.467390861,"measurements":[{"parameter":"pm25","value":31,"lastUpdated":"2018-10-13T21:00:00.000Z","unit":"µg/m³","sourceName":"Wuhu","averagingPeriod":{"value":1,"unit":"hours"}}],"coordinates":{"latitude":31.3178,"longitude":118.3708}},{"location":"Wuhu Wu Qi Er Ling Han","city":"Wuhu","country":"CN","distance":11142090.391809996,"measurements":[{"parameter":"pm25","value":44,"lastUpdated":"2018-08-24T06:00:00.000Z","unit":"µg/m³","sourceName":"Wuhu","averagingPeriod":{"value":1,"unit":"hours"}}],"coordinates":{"latitude":31.3839,"longitude":118.4022}},{"location":"Xuancheng Ao Feng Zi Zhan","city":"Xuancheng","country":"CN","distance":11156667.059639031,"measurements":[{"parameter":"pm25","value":30,"lastUpdated":"2018-10-13T21:00:00.000Z","unit":"µg/m³","sourceName":"Xuancheng","averagingPeriod":{"value":1,"unit":"hours"}}],"coordinates":{"latitude":30.9447,"longitude":118.7581}},{"location":"Xuancheng Jing Ting Shan Zi Zhan","city":"Xuancheng","country":"CN","distance":11155423.304388452,"measurements":[{"parameter":"pm25","value":43,"lastUpdated":"2018-10-13T21:00:00.000Z","unit":"µg/m³","sourceName":"Xuancheng","averagingPeriod":{"value":1,"unit":"hours"}}],"coordinates":{"latitude":30.9742,"longitude":118.7386}},{"location":"Xuancheng Kai Fa Qu Zi Zhan","city":"Xuancheng","country":"CN","distance":11159351.94521689,"measurements":[{"parameter":"pm25","value":35,"lastUpdated":"2018-10-13T21:00:00.000Z","unit":"µg/m³","sourceName":"Xuancheng","averagingPeriod":{"value":1,"unit":"hours"}}],"coordinates":{"latitude":30.9431,"longitude":118.7175}},{"location":"一中","city":"宿州市","country":"CN","distance":11038910.173218891,"measurements":[{"parameter":"pm25","value":159,"lastUpdated":"2019-01-25T04:00:00.000Z","unit":"µg/m³","sourceName":"ChinaAQIData","averagingPeriod":{"value":1,"unit":"hours"}}],"coordinates":{"latitude":33.6284,"longitude":116.9677}},{"location":"一商场","city":"四平市","country":"CN","distance":9819989.071241483,"measurements":[{"parameter":"pm25","value":30,"lastUpdated":"2019-01-25T04:00:00.000Z","unit":"µg/m³","sourceName":"ChinaAQIData","averagingPeriod":{"value":1,"unit":"hours"}}],"coordinates":{"latitude":43.1594,"longitude":124.3711}},{"location":"丁字口","city":"遵义市","country":"CN","distance":12142445.254214298,"measurements":[{"parameter":"pm25","value":33,"lastUpdated":"2019-01-25T04:00:00.000Z","unit":"µg/m³","sourceName":"ChinaAQIData","averagingPeriod":{"value":1,"unit":"hours"}}],"coordinates":{"latitude":27.6869,"longitude":106.9222}},{"location":"七星岩子站","city":"肇庆市","country":"CN","distance":12227039.332564019,"measurements":[{"parameter":"pm25","value":72,"lastUpdated":"2019-01-25T04:00:00.000Z","unit":"µg/m³","sourceName":"ChinaAQIData","averagingPeriod":{"value":1,"unit":"hours"}}],"coordinates":{"latitude":23.0786,"longitude":112.4722}},{"location":"七贤岭","city":"大连市","country":"CN","distance":10332530.289890595,"measurements":[{"parameter":"pm25","value":16,"lastUpdated":"2019-01-25T04:00:00.000Z","unit":"µg/m³","sourceName":"ChinaAQIData","averagingPeriod":{"value":1,"unit":"hours"}}],"coordinates":{"latitude":38.85611,"longitude":121.51806}},{"location":"万安","city":"泉州市","country":"CN","distance":11661940.703381313,"measurements":[{"parameter":"pm25","value":34,"lastUpdated":"2019-01-25T04:00:00.000Z","unit":"µg/m³","sourceName":"ChinaAQIData","averagingPeriod":{"value":1,"unit":"hours"}}],"coordinates":{"latitude":24.9424,"longitude":118.6663}},{"location":"万寿西宫","city":"北京市","country":"CN","distance":10535706.663299158,"measurements":[{"parameter":"pm25","value":12,"lastUpdated":"2019-01-25T04:00:00.000Z","unit":"µg/m³","sourceName":"ChinaAQIData","averagingPeriod":{"value":1,"unit":"hours"}}],"coordinates":{"latitude":39.8673,"longitude":116.366}},{"location":"万里国际学校","city":"宁波市","country":"CN","distance":11058774.24451542,"measurements":[{"parameter":"pm25","value":109,"lastUpdated":"2019-01-25T04:00:00.000Z","unit":"µg/m³","sourceName":"ChinaAQIData","averagingPeriod":{"value":1,"unit":"hours"}}],"coordinates":{"latitude":29.901667,"longitude":121.61472}},{"location":"万里学院","city":"宁波市","country":"CN","distance":11068949.252533995,"measurements":[{"parameter":"pm25","value":118,"lastUpdated":"2019-01-25T04:00:00.000Z","unit":"µg/m³","sourceName":"ChinaAQIData","averagingPeriod":{"value":1,"unit":"hours"}}],"coordinates":{"latitude":29.8208,"longitude":121.56}},{"location":"三五一五工厂","city":"漯河市","country":"CN","distance":11213215.529106032,"measurements":[{"parameter":"pm25","value":130,"lastUpdated":"2019-01-25T04:00:00.000Z","unit":"µg/m³","sourceName":"ChinaAQIData","averagingPeriod":{"value":1,"unit":"hours"}}],"coordinates":{"latitude":33.567,"longitude":114.056}},{"location":"三元区政府","city":"三明市","country":"CN","distance":11625043.536471147,"measurements":[{"parameter":"pm25","value":61,"lastUpdated":"2019-01-25T04:00:00.000Z","unit":"µg/m³","sourceName":"ChinaAQIData","averagingPeriod":{"value":1,"unit":"hours"}}],"coordinates":{"latitude":26.2378,"longitude":117.6028}},{"location":"三十一中学","city":"乌鲁木齐市","country":"CN","distance":11264506.187472068,"measurements":[{"parameter":"pm25","value":12,"lastUpdated":"2019-01-25T04:00:00.000Z","unit":"µg/m³","sourceName":"ChinaAQIData","averagingPeriod":{"value":1,"unit":"hours"}}],"coordinates":{"latitude":43.831,"longitude":87.6432}},{"location":"三国揽胜宫","city":"亳州市","country":"CN","distance":11088794.457055105,"measurements":[{"parameter":"pm25","value":151,"lastUpdated":"2019-01-25T04:00:00.000Z","unit":"µg/m³","sourceName":"ChinaAQIData","averagingPeriod":{"value":1,"unit":"hours"}}],"coordinates":{"latitude":33.8561,"longitude":115.7831}}]}